[ 
    {
       "id": "1",
       "name": "River Street , Clerkenwell",
       "terminalName": "001023",
       "lat": "-7.52916347",
       "long": "109.109970527",
       "installed": "true",
       "locked": "false",
       "installDate": "1278947280000",
       "removalDate": [],
       "temporary": "false",
       "nbBikes": "0",
       "nbEmptyDocks": "19",
       "nbDocks": "19"
    },
    {
       "id": "2",
       "name": "Phillimore Gardens, Kensington",
       "terminalName": "001018",
       "lat": "-7.49960695",
       "long": "109.197574246",
       "installed": "true",
       "locked": "false",
       "installDate": "1278585780000",
       "removalDate": [],
       "temporary": "false",
       "nbBikes": "19",
       "nbEmptyDocks": "18",
       "nbDocks": "37"
    },
    {
       "id": "3",
       "name": "Christopher Street, Liverpool Street",
       "terminalName": "001012",
       "lat": "-7.52128377",
       "long": "109.084605692",
       "installed": "true",
       "locked": "false",
       "installDate": "1278240360000",
       "removalDate": [],
       "temporary": "false",
       "nbBikes": "13",
       "nbEmptyDocks": "19",
       "nbDocks": "32"
    },
    {
       "id": "4",
       "name": "St. Chad's Street, King's Cross",
       "terminalName": "001013",
       "lat": "-7.53005939",
       "long": "109.120973687",
       "installed": "true",
       "locked": "false",
       "installDate": "1278241080000",
       "removalDate": [],
       "temporary": "false",
       "nbBikes": "19",
       "nbEmptyDocks": "4",
       "nbDocks": "23"
    },
    {
       "id": "5",
       "name": "Sedding Street, Sloane Square",
       "terminalName": "003420",
       "lat": "-7.49313",
       "long": "109.156876",
       "installed": "true",
       "locked": "false",
       "installDate": "1278241440000",
       "removalDate": [],
       "temporary": "false",
       "nbBikes": "17",
       "nbEmptyDocks": "10",
       "nbDocks": "27"
    },
    {
       "id": "6",
       "name": "Broadcasting House, Marylebone",
       "terminalName": "003424",
       "lat": "-7.51811784",
       "long": "109.144228881",
       "installed": "true",
       "locked": "false",
       "installDate": "1278241680000",
       "removalDate": [],
       "temporary": "false",
       "nbBikes": "17",
       "nbEmptyDocks": "1",
       "nbDocks": "18"
    },
    {
       "id": "7",
       "name": "Charlbert Street, St. John's Wood",
       "terminalName": "003422",
       "lat": "-7.53430039",
       "long": "109.1680743",
       "installed": "true",
       "locked": "false",
       "installDate": "1278241800000",
       "removalDate": [],
       "temporary": "false",
       "nbBikes": "7",
       "nbEmptyDocks": "7",
       "nbDocks": "16"
    },
    {
       "id": "8",
       "name": "Maida Vale, Maida Vale",
       "terminalName": "003423",
       "lat": "-7.529857",
       "long": "109.18348604",
       "installed": "true",
       "locked": "false",
       "installDate": "1540984560000",
       "removalDate": [],
       "temporary": "false",
       "nbBikes": "13",
       "nbEmptyDocks": "26",
       "nbDocks": "39"
    },
    {
       "id": "9",
       "name": "New Globe Walk, Bankside",
       "terminalName": "001015",
       "lat": "-7.5073853",
       "long": "109.096440751",
       "installed": "true",
       "locked": "false",
       "installDate": "1278242340000",
       "removalDate": [],
       "temporary": "false",
       "nbBikes": "12",
       "nbEmptyDocks": "7",
       "nbDocks": "19"
    },
    {
       "id": "10",
       "name": "Park Street, Bankside",
       "terminalName": "001024",
       "lat": "-7.50597426",
       "long": "109.092754157",
       "installed": "true",
       "locked": "false",
       "installDate": "1278242460000",
       "removalDate": [],
       "temporary": "false",
       "nbBikes": "6",
       "nbEmptyDocks": "12",
       "nbDocks": "18"
    },
    {
       "id": "11",
       "name": "Brunswick Square, Bloomsbury",
       "terminalName": "001022",
       "lat": "-7.52395143",
       "long": "109.122502346",
       "installed": "true",
       "locked": "false",
       "installDate": "1278340440000",
       "removalDate": [],
       "temporary": "false",
       "nbBikes": "23",
       "nbEmptyDocks": "1",
       "nbDocks": "24"
    },
    {
       "id": "12",
       "name": "Malet Street, Bloomsbury",
       "terminalName": "000980",
       "lat": "-7.52168078",
       "long": "109.130431727",
       "installed": "true",
       "locked": "false",
       "installDate": "1278340620000",
       "removalDate": [],
       "temporary": "false",
       "nbBikes": "24",
       "nbEmptyDocks": "24",
       "nbDocks": "49"
    },
    {
       "id": "13",
       "name": "Scala Street, Fitzrovia",
       "terminalName": "000970",
       "lat": "-7.51991453",
       "long": "109.136039674",
       "installed": "true",
       "locked": "false",
       "installDate": "1278340800000",
       "removalDate": [],
       "temporary": "false",
       "nbBikes": "14",
       "nbEmptyDocks": "7",
       "nbDocks": "21"
    },
    {
       "id": "14",
       "name": "Belgrove Street , King's Cross",
       "terminalName": "001011",
       "lat": "-7.52994371",
       "long": "109.123616824",
       "installed": "true",
       "locked": "false",
       "installDate": "1278341040000",
       "removalDate": [],
       "temporary": "false",
       "nbBikes": "26",
       "nbEmptyDocks": "22",
       "nbDocks": "48"
    },
    {
       "id": "15",
       "name": "Great Russell Street, Bloomsbury",
       "terminalName": "000988",
       "lat": "-7.51772703",
       "long": "109.127854211",
       "installed": "true",
       "locked": "false",
       "installDate": "1278341220000",
       "removalDate": [],
       "temporary": "false",
       "nbBikes": "7",
       "nbEmptyDocks": "19",
       "nbDocks": "26"
    },
    {
       "id": "16",
       "name": "Cartwright Gardens , Bloomsbury",
       "terminalName": "001010",
       "lat": "-7.52635795",
       "long": "109.125979294",
       "installed": "true",
       "locked": "false",
       "installDate": "1278341400000",
       "removalDate": [],
       "temporary": "false",
       "nbBikes": "11",
       "nbEmptyDocks": "11",
       "nbDocks": "22"
    },
    {
       "id": "17",
       "name": "Hatton Wall, Holborn",
       "terminalName": "001008",
       "lat": "-7.5216612",
       "long": "109.109006325",
       "installed": "true",
       "locked": "false",
       "installDate": "1278423720000",
       "removalDate": [],
       "temporary": "false",
       "nbBikes": "21",
       "nbEmptyDocks": "4",
       "nbDocks": "26"
    },
    {
       "id": "18",
       "name": "Drury Lane, Covent Garden",
       "terminalName": "001007",
       "lat": "-7.51477076",
       "long": "109.12221963",
       "installed": "true",
       "locked": "false",
       "installDate": "1278426300000",
       "removalDate": [],
       "temporary": "false",
       "nbBikes": "10",
       "nbEmptyDocks": "16",
       "nbDocks": "27"
    },
    {
       "id": "19",
       "name": "Taviton Street, Bloomsbury",
       "terminalName": "001009",
       "lat": "-7.52505093",
       "long": "109.131161087",
       "installed": "true",
       "locked": "false",
       "installDate": "1278426720000",
       "removalDate": [],
       "temporary": "false",
       "nbBikes": "10",
       "nbEmptyDocks": "20",
       "nbDocks": "30"
    },
    {
       "id": "20",
       "name": "Drummond Street , Euston",
       "terminalName": "000993",
       "lat": "-7.527326",
       "long": "109.13605286",
       "installed": "true",
       "locked": "false",
       "installDate": "1544659200000",
       "removalDate": [],
       "temporary": "false",
       "nbBikes": "14",
       "nbEmptyDocks": "14",
       "nbDocks": "28"
    },
    {
       "id": "22",
       "name": "Northington Street , Holborn",
       "terminalName": "003425",
       "lat": "-7.5222641",
       "long": "109.114079481",
       "installed": "true",
       "locked": "false",
       "installDate": "1278428880000",
       "removalDate": [],
       "temporary": "false",
       "nbBikes": "7",
       "nbEmptyDocks": "12",
       "nbDocks": "19"
    },
    {
       "id": "23",
       "name": "Red Lion Square, Holborn",
       "terminalName": "003421",
       "lat": "-7.51943538",
       "long": "109.119123345",
       "installed": "true",
       "locked": "false",
       "installDate": "1278429300000",
       "removalDate": [],
       "temporary": "false",
       "nbBikes": "2",
       "nbEmptyDocks": "14",
       "nbDocks": "16"
    },
    {
       "id": "24",
       "name": "British Museum, Bloomsbury",
       "terminalName": "000981",
       "lat": "-7.51908011",
       "long": "109.124678402",
       "installed": "true",
       "locked": "false",
       "installDate": "1278430140000",
       "removalDate": [],
       "temporary": "false",
       "nbBikes": "6",
       "nbEmptyDocks": "29",
       "nbDocks": "35"
    },
    {
       "id": "25",
       "name": "Doric Way , Somers Town",
       "terminalName": "001004",
       "lat": "-7.5288338",
       "long": "109.132250369",
       "installed": "true",
       "locked": "false",
       "installDate": "1278433200000",
       "removalDate": [],
       "temporary": "false",
       "nbBikes": "27",
       "nbEmptyDocks": "23",
       "nbDocks": "50"
    },
    {
       "id": "26",
       "name": "Ampton Street , Clerkenwell",
       "terminalName": "001019",
       "lat": "-7.52728093",
       "long": "109.11829517",
       "installed": "true",
       "locked": "false",
       "installDate": "1278434160000",
       "removalDate": [],
       "temporary": "false",
       "nbBikes": "11",
       "nbEmptyDocks": "10",
       "nbDocks": "21"
    },
    {
       "id": "27",
       "name": "Bouverie Street, Temple",
       "terminalName": "001021",
       "lat": "-7.51382102",
       "long": "109.107927706",
       "installed": "true",
       "locked": "false",
       "installDate": "1278500160000",
       "removalDate": [],
       "temporary": "false",
       "nbBikes": "2",
       "nbEmptyDocks": "25",
       "nbDocks": "27"
    },
    {
       "id": "28",
       "name": "Bolsover Street, Fitzrovia",
       "terminalName": "001025",
       "lat": "-7.52351808",
       "long": "109.143613641",
       "installed": "true",
       "locked": "false",
       "installDate": "1278500460000",
       "removalDate": [],
       "temporary": "false",
       "nbBikes": "15",
       "nbEmptyDocks": "2",
       "nbDocks": "19"
    },
    {
       "id": "29",
       "name": "Hereford Road, Bayswater",
       "terminalName": "001016",
       "lat": "-7.513735",
       "long": "109.193487",
       "installed": "true",
       "locked": "false",
       "installDate": "1278501180000",
       "removalDate": [],
       "temporary": "false",
       "nbBikes": "11",
       "nbEmptyDocks": "11",
       "nbDocks": "22"
    },
    {
       "id": "30",
       "name": "Windsor Terrace, Hoxton",
       "terminalName": "001029",
       "lat": "-7.52915444",
       "long": "109.093421615",
       "installed": "true",
       "locked": "false",
       "installDate": "1278501420000",
       "removalDate": [],
       "temporary": "false",
       "nbBikes": "11",
       "nbEmptyDocks": "13",
       "nbDocks": "24"
    },
    {
       "id": "31",
       "name": "Fanshaw Street, Hoxton",
       "terminalName": "003427",
       "lat": "-7.52953709",
       "long": "109.083353323",
       "installed": "true",
       "locked": "false",
       "installDate": "1278501600000",
       "removalDate": [],
       "temporary": "false",
       "nbBikes": "28",
       "nbEmptyDocks": "8",
       "nbDocks": "36"
    },
    {
       "id": "32",
       "name": "Leonard Circus , Shoreditch",
       "terminalName": "001020",
       "lat": "-7.52469624",
       "long": "109.084439283",
       "installed": "true",
       "locked": "false",
       "installDate": "1278506700000",
       "removalDate": [],
       "temporary": "false",
       "nbBikes": "14",
       "nbEmptyDocks": "28",
       "nbDocks": "43"
    },
    {
       "id": "33",
       "name": "Central House, Aldgate",
       "terminalName": "003430",
       "lat": "-7.515231",
       "long": "109.07015",
       "installed": "true",
       "locked": "false",
       "installDate": "1278506940000",
       "removalDate": [],
       "temporary": "false",
       "nbBikes": "4",
       "nbEmptyDocks": "14",
       "nbDocks": "18"
    },
    {
       "id": "34",
       "name": "Pancras Road, King's Cross",
       "terminalName": "003428",
       "lat": "-7.5341235",
       "long": "109.129386874",
       "installed": "true",
       "locked": "false",
       "installDate": "1278507060000",
       "removalDate": [],
       "temporary": "false",
       "nbBikes": "12",
       "nbEmptyDocks": "3",
       "nbDocks": "16"
    },
    {
       "id": "36",
       "name": "De Vere Gardens, Kensington",
       "terminalName": "003446",
       "lat": "-7.50173726",
       "long": "109.184980612",
       "installed": "true",
       "locked": "false",
       "installDate": "1278519900000",
       "removalDate": [],
       "temporary": "false",
       "nbBikes": "26",
       "nbEmptyDocks": "2",
       "nbDocks": "28"
    },
    {
       "id": "37",
       "name": "Penywern Road, Earl's Court",
       "terminalName": "003444",
       "lat": "-7.49159394",
       "long": "109.192369256",
       "installed": "true",
       "locked": "false",
       "installDate": "1278520020000",
       "removalDate": [],
       "temporary": "false",
       "nbBikes": "3",
       "nbEmptyDocks": "14",
       "nbDocks": "17"
    },
    {
       "id": "38",
       "name": "Abingdon Villas, Kensington",
       "terminalName": "003442",
       "lat": "-7.4973875",
       "long": "109.197245586",
       "installed": "true",
       "locked": "false",
       "installDate": "1278584880000",
       "removalDate": [],
       "temporary": "false",
       "nbBikes": "13",
       "nbEmptyDocks": "4",
       "nbDocks": "17"
    },
    {
       "id": "39",
       "name": "Shoreditch High Street, Shoreditch",
       "terminalName": "003445",
       "lat": "-7.5263778",
       "long": "109.078130921",
       "installed": "true",
       "locked": "false",
       "installDate": "1278601740000",
       "removalDate": [],
       "temporary": "false",
       "nbBikes": "18",
       "nbEmptyDocks": "23",
       "nbDocks": "41"
    },
    {
       "id": "40",
       "name": "Commercial Street, Shoreditch",
       "terminalName": "001083",
       "lat": "-7.52127071",
       "long": "109.0755789",
       "installed": "true",
       "locked": "false",
       "installDate": "1278601980000",
       "removalDate": [],
       "temporary": "false",
       "nbBikes": "7",
       "nbEmptyDocks": "9",
       "nbDocks": "16"
    },
    {
       "id": "41",
       "name": "Pindar Street, Liverpool Street",
       "terminalName": "001084",
       "lat": "-7.520955",
       "long": "109.083493552",
       "installed": "true",
       "locked": "false",
       "installDate": "1278602280000",
       "removalDate": [],
       "temporary": "false",
       "nbBikes": "10",
       "nbEmptyDocks": "14",
       "nbDocks": "24"
    },
    {
       "id": "42",
       "name": "Wenlock Road , Hoxton",
       "terminalName": "000979",
       "lat": "-7.53099181",
       "long": "109.093903825",
       "installed": "true",
       "locked": "false",
       "installDate": "1278602700000",
       "removalDate": [],
       "temporary": "false",
       "nbBikes": "11",
       "nbEmptyDocks": "17",
       "nbDocks": "28"
    },
    {
       "id": "43",
       "name": "Crawford Street, Marylebone",
       "terminalName": "001036",
       "lat": "-7.52026",
       "long": "109.157183945",
       "installed": "true",
       "locked": "false",
       "installDate": "1278687720000",
       "removalDate": [],
       "temporary": "false",
       "nbBikes": "11",
       "nbEmptyDocks": "7",
       "nbDocks": "18"
    },
    {
       "id": "44",
       "name": "Bruton Street, Mayfair",
       "terminalName": "001034",
       "lat": "-7.51073687",
       "long": "109.144165239",
       "installed": "true",
       "locked": "false",
       "installDate": "1278687900000",
       "removalDate": [],
       "temporary": "false",
       "nbBikes": "10",
       "nbEmptyDocks": "11",
       "nbDocks": "21"
    },
    {
       "id": "45",
       "name": "Boston Place, Marylebone",
       "terminalName": "001035",
       "lat": "-7.522511",
       "long": "109.162298",
       "installed": "true",
       "locked": "false",
       "installDate": "1278691320000",
       "removalDate": [],
       "temporary": "false",
       "nbBikes": "9",
       "nbEmptyDocks": "17",
       "nbDocks": "26"
    },
    {
       "id": "46",
       "name": "Nesham Street, Wapping",
       "terminalName": "001031",
       "lat": "-7.507131",
       "long": "109.06691",
       "installed": "true",
       "locked": "false",
       "installDate": "1278691800000",
       "removalDate": [],
       "temporary": "false",
       "nbBikes": "10",
       "nbEmptyDocks": "6",
       "nbDocks": "16"
    },
    {
       "id": "47",
       "name": "Warwick Avenue Station, Maida Vale",
       "terminalName": "001027",
       "lat": "-7.52334476",
       "long": "109.183846408",
       "installed": "true",
       "locked": "false",
       "installDate": "1278749160000",
       "removalDate": [],
       "temporary": "false",
       "nbBikes": "6",
       "nbEmptyDocks": "13",
       "nbDocks": "19"
    },
    {
       "id": "48",
       "name": "Godliman Street, St. Paul's",
       "terminalName": "000971",
       "lat": "-7.51248445",
       "long": "109.099141408",
       "installed": "true",
       "locked": "false",
       "installDate": "1278749460000",
       "removalDate": [],
       "temporary": "false",
       "nbBikes": "16",
       "nbEmptyDocks": "8",
       "nbDocks": "25"
    },
    {
       "id": "49",
       "name": "Curzon Street, Mayfair",
       "terminalName": "003437",
       "lat": "-7.50706909",
       "long": "109.145904427",
       "installed": "true",
       "locked": "false",
       "installDate": "1278749940000",
       "removalDate": [],
       "temporary": "false",
       "nbBikes": "12",
       "nbEmptyDocks": "3",
       "nbDocks": "16"
    },
    {
       "id": "50",
       "name": "East Road, Hoxton",
       "terminalName": "001054",
       "lat": "-7.52867339",
       "long": "109.087459376",
       "installed": "true",
       "locked": "false",
       "installDate": "1278750240000",
       "removalDate": [],
       "temporary": "false",
       "nbBikes": "13",
       "nbEmptyDocks": "12",
       "nbDocks": "27"
    },
    {
       "id": "51",
       "name": "Finsbury Library , Finsbury",
       "terminalName": "000986",
       "lat": "-7.52671796",
       "long": "109.104298194",
       "installed": "true",
       "locked": "false",
       "installDate": "1278750540000",
       "removalDate": [],
       "temporary": "false",
       "nbBikes": "25",
       "nbEmptyDocks": "4",
       "nbDocks": "29"
    },
    {
       "id": "52",
       "name": "Roscoe Street, St. Luke's",
       "terminalName": "001026",
       "lat": "-7.52295439",
       "long": "109.094934859",
       "installed": "true",
       "locked": "false",
       "installDate": "1278750840000",
       "removalDate": [],
       "temporary": "false",
       "nbBikes": "4",
       "nbEmptyDocks": "13",
       "nbDocks": "18"
    },
    {
       "id": "53",
       "name": "Grafton Street, Mayfair",
       "terminalName": "003431",
       "lat": "-7.5099923",
       "long": "109.143495266",
       "installed": "true",
       "locked": "false",
       "installDate": "1278752580000",
       "removalDate": [],
       "temporary": "false",
       "nbBikes": "9",
       "nbEmptyDocks": "9",
       "nbDocks": "18"
    },
    {
       "id": "54",
       "name": "Golden Lane, Barbican",
       "terminalName": "000967",
       "lat": "-7.52174785",
       "long": "109.094475072",
       "installed": "true",
       "locked": "false",
       "installDate": "1278766740000",
       "removalDate": [],
       "temporary": "false",
       "nbBikes": "7",
       "nbEmptyDocks": "20",
       "nbDocks": "27"
    },
    {
       "id": "55",
       "name": "Finsbury Circus, Liverpool Street",
       "terminalName": "000984",
       "lat": "-7.51707521",
       "long": "109.086685542",
       "installed": "true",
       "locked": "false",
       "installDate": "1278766980000",
       "removalDate": [],
       "temporary": "false",
       "nbBikes": "16",
       "nbEmptyDocks": "17",
       "nbDocks": "33"
    },
    {
       "id": "56",
       "name": "Paddington Street, Marylebone",
       "terminalName": "001033",
       "lat": "-7.52058381",
       "long": "109.154701411",
       "installed": "true",
       "locked": "false",
       "installDate": "1278767220000",
       "removalDate": [],
       "temporary": "false",
       "nbBikes": "5",
       "nbEmptyDocks": "11",
       "nbDocks": "16"
    },
    {
       "id": "57",
       "name": "Guilford Street , Bloomsbury",
       "terminalName": "000974",
       "lat": "-7.52334672",
       "long": "109.120202614",
       "installed": "true",
       "locked": "false",
       "installDate": "1278767460000",
       "removalDate": [],
       "temporary": "false",
       "nbBikes": "22",
       "nbEmptyDocks": "10",
       "nbDocks": "32"
    },
    {
       "id": "58",
       "name": "New Inn Yard, Shoreditch",
       "terminalName": "001032",
       "lat": "-7.52452699",
       "long": "109.079248081",
       "installed": "true",
       "locked": "false",
       "installDate": "1278767700000",
       "removalDate": [],
       "temporary": "false",
       "nbBikes": "9",
       "nbEmptyDocks": "11",
       "nbDocks": "20"
    },
    {
       "id": "60",
       "name": "Lisson Grove, St. John's Wood",
       "terminalName": "001030",
       "lat": "-7.52644828",
       "long": "109.172190727",
       "installed": "true",
       "locked": "false",
       "installDate": "1278769140000",
       "removalDate": [],
       "temporary": "false",
       "nbBikes": "11",
       "nbEmptyDocks": "7",
       "nbDocks": "18"
    },
    {
       "id": "61",
       "name": "Great Dover Street, The Borough",
       "terminalName": "001017",
       "lat": "-7.49738251",
       "long": "109.089446947",
       "installed": "true",
       "locked": "false",
       "installDate": "1278773820000",
       "removalDate": [],
       "temporary": "false",
       "nbBikes": "11",
       "nbEmptyDocks": "21",
       "nbDocks": "33"
    },
    {
       "id": "62",
       "name": "Cotton Garden Estate, Kennington",
       "terminalName": "000990",
       "lat": "-7.4907579",
       "long": "109.106323685",
       "installed": "true",
       "locked": "false",
       "installDate": "1278773940000",
       "removalDate": [],
       "temporary": "false",
       "nbBikes": "9",
       "nbEmptyDocks": "14",
       "nbDocks": "24"
    },
    {
       "id": "63",
       "name": "Murray Grove , Hoxton",
       "terminalName": "000989",
       "lat": "-7.53089041",
       "long": "109.089782579",
       "installed": "true",
       "locked": "false",
       "installDate": "1278774120000",
       "removalDate": [],
       "temporary": "false",
       "nbBikes": "13",
       "nbEmptyDocks": "14",
       "nbDocks": "27"
    },
    {
       "id": "64",
       "name": "William IV Street, Strand",
       "terminalName": "001028",
       "lat": "-7.50946212",
       "long": "109.124749274",
       "installed": "true",
       "locked": "false",
       "installDate": "1278774300000",
       "removalDate": [],
       "temporary": "false",
       "nbBikes": "17",
       "nbEmptyDocks": "9",
       "nbDocks": "26"
    },
    {
       "id": "66",
       "name": "Holborn Circus, Holborn",
       "terminalName": "000982",
       "lat": "-7.51795029",
       "long": "109.108657431",
       "installed": "true",
       "locked": "false",
       "installDate": "1278845280000",
       "removalDate": [],
       "temporary": "false",
       "nbBikes": "1",
       "nbEmptyDocks": "39",
       "nbDocks": "40"
    },
    {
       "id": "67",
       "name": "Hatton Garden, Holborn",
       "terminalName": "000985",
       "lat": "-7.51882555",
       "long": "109.108028472",
       "installed": "true",
       "locked": "false",
       "installDate": "1278847440000",
       "removalDate": [],
       "temporary": "false",
       "nbBikes": "4",
       "nbEmptyDocks": "24",
       "nbDocks": "28"
    },
    {
       "id": "68",
       "name": "Theobald's Road , Holborn",
       "terminalName": "000975",
       "lat": "-7.52059681",
       "long": "109.116688468",
       "installed": "true",
       "locked": "false",
       "installDate": "1278857040000",
       "removalDate": [],
       "temporary": "false",
       "nbBikes": "3",
       "nbEmptyDocks": "23",
       "nbDocks": "26"
    },
    {
       "id": "69",
       "name": "Euston Road, Euston",
       "terminalName": "000983",
       "lat": "-7.5262363",
       "long": "109.134407652",
       "installed": "true",
       "locked": "false",
       "installDate": "1278861540000",
       "removalDate": [],
       "temporary": "false",
       "nbBikes": "10",
       "nbEmptyDocks": "14",
       "nbDocks": "24"
    },
    {
       "id": "70",
       "name": "Calshot Street , King's Cross",
       "terminalName": "001066",
       "lat": "-7.53136059",
       "long": "109.117069978",
       "installed": "true",
       "locked": "false",
       "installDate": "1278863340000",
       "removalDate": [],
       "temporary": "false",
       "nbBikes": "20",
       "nbEmptyDocks": "2",
       "nbDocks": "24"
    },
    {
       "id": "71",
       "name": "Newgate Street , St. Paul's",
       "terminalName": "001074",
       "lat": "-7.5154186",
       "long": "109.098850915",
       "installed": "true",
       "locked": "false",
       "installDate": "1278924900000",
       "removalDate": [],
       "temporary": "false",
       "nbBikes": "15",
       "nbEmptyDocks": "19",
       "nbDocks": "34"
    },
    {
       "id": "72",
       "name": "Farringdon Lane, Clerkenwell",
       "terminalName": "003432",
       "lat": "-7.52352001",
       "long": "109.108340165",
       "installed": "true",
       "locked": "false",
       "installDate": "1276948860000",
       "removalDate": [],
       "temporary": "false",
       "nbBikes": "11",
       "nbEmptyDocks": "5",
       "nbDocks": "16"
    },
    {
       "id": "73",
       "name": "Old Street Station, St. Luke's",
       "terminalName": "001064",
       "lat": "-7.52572618",
       "long": "109.088486188",
       "installed": "true",
       "locked": "false",
       "installDate": "1278941040000",
       "removalDate": [],
       "temporary": "false",
       "nbBikes": "20",
       "nbEmptyDocks": "17",
       "nbDocks": "37"
    },
    {
       "id": "74",
       "name": "Vauxhall Cross, Vauxhall",
       "terminalName": "001000",
       "lat": "-7.48591714",
       "long": "109.124469948",
       "installed": "true",
       "locked": "false",
       "installDate": "1278941160000",
       "removalDate": [],
       "temporary": "false",
       "nbBikes": "13",
       "nbEmptyDocks": "3",
       "nbDocks": "17"
    },
    {
       "id": "75",
       "name": "Torrens Street, Angel",
       "terminalName": "001060",
       "lat": "-7.53219984",
       "long": "109.105480698",
       "installed": "true",
       "locked": "false",
       "installDate": "1278945180000",
       "removalDate": [],
       "temporary": "false",
       "nbBikes": "6",
       "nbEmptyDocks": "13",
       "nbDocks": "19"
    },
    {
       "id": "76",
       "name": "Longford Street, The Regent's Park",
       "terminalName": "000976",
       "lat": "-7.52559505",
       "long": "109.144083893",
       "installed": "true",
       "locked": "false",
       "installDate": "1278946560000",
       "removalDate": [],
       "temporary": "false",
       "nbBikes": "12",
       "nbEmptyDocks": "8",
       "nbDocks": "21"
    },
    {
       "id": "77",
       "name": "Russell Square Station, Bloomsbury",
       "terminalName": "000978",
       "lat": "-7.52341837",
       "long": "109.124121774",
       "installed": "true",
       "locked": "false",
       "installDate": "1278946860000",
       "removalDate": [],
       "temporary": "false",
       "nbBikes": "15",
       "nbEmptyDocks": "11",
       "nbDocks": "26"
    },
    {
       "id": "78",
       "name": "Sadlers Sports Centre, Finsbury",
       "terminalName": "003433",
       "lat": "-7.52486887",
       "long": "109.099489485",
       "installed": "true",
       "locked": "false",
       "installDate": "1278948480000",
       "removalDate": [],
       "temporary": "false",
       "nbBikes": "10",
       "nbEmptyDocks": "7",
       "nbDocks": "17"
    },
    {
       "id": "79",
       "name": "Arundel Street, Temple",
       "terminalName": "003455",
       "lat": "-7.511726",
       "long": "109.11385596",
       "installed": "true",
       "locked": "false",
       "installDate": "1509018360000",
       "removalDate": [],
       "temporary": "false",
       "nbBikes": "7",
       "nbEmptyDocks": "11",
       "nbDocks": "18"
    },
    {
       "id": "80",
       "name": "Webber Street , Southwark",
       "terminalName": "003448",
       "lat": "-7.50069361",
       "long": "109.102091246",
       "installed": "true",
       "locked": "false",
       "installDate": "1278952440000",
       "removalDate": [],
       "temporary": "false",
       "nbBikes": "20",
       "nbEmptyDocks": "25",
       "nbDocks": "45"
    },
    {
       "id": "81",
       "name": "Great Titchfield Street, Fitzrovia",
       "terminalName": "003450",
       "lat": "-7.52025302",
       "long": "109.141327271",
       "installed": "true",
       "locked": "false",
       "installDate": "1279012980000",
       "removalDate": [],
       "temporary": "false",
       "nbBikes": "10",
       "nbEmptyDocks": "9",
       "nbDocks": "19"
    },
    {
       "id": "82",
       "name": "Chancery Lane, Holborn",
       "terminalName": "003453",
       "lat": "-7.514274",
       "long": "109.111257",
       "installed": "true",
       "locked": "false",
       "installDate": "1279015680000",
       "removalDate": [],
       "temporary": "false",
       "nbBikes": "3",
       "nbEmptyDocks": "12",
       "nbDocks": "15"
    },
    {
       "id": "83",
       "name": "Panton Street, West End",
       "terminalName": "003452",
       "lat": "-7.50963938",
       "long": "109.131510949",
       "installed": "true",
       "locked": "false",
       "installDate": "1279015800000",
       "removalDate": [],
       "temporary": "false",
       "nbBikes": "15",
       "nbEmptyDocks": "6",
       "nbDocks": "21"
    },
    {
       "id": "84",
       "name": "Breams Buildings, Holborn",
       "terminalName": "003449",
       "lat": "-7.51593725",
       "long": "109.111778348",
       "installed": "true",
       "locked": "false",
       "installDate": "1279020240000",
       "removalDate": [],
       "temporary": "false",
       "nbBikes": "15",
       "nbEmptyDocks": "10",
       "nbDocks": "25"
    },
    {
       "id": "85",
       "name": "Tanner Street, Bermondsey",
       "terminalName": "000994",
       "lat": "-7.50064702",
       "long": "109.078600401",
       "installed": "true",
       "locked": "false",
       "installDate": "1279026060000",
       "removalDate": [],
       "temporary": "false",
       "nbBikes": "23",
       "nbEmptyDocks": "17",
       "nbDocks": "41"
    },
    {
       "id": "86",
       "name": "Sancroft Street, Vauxhall",
       "terminalName": "003434",
       "lat": "-7.48947903",
       "long": "109.115156562",
       "installed": "true",
       "locked": "false",
       "installDate": "1279027140000",
       "removalDate": [],
       "temporary": "false",
       "nbBikes": "13",
       "nbEmptyDocks": "11",
       "nbDocks": "24"
    },
    {
       "id": "87",
       "name": "Devonshire Square, Liverpool Street",
       "terminalName": "003438",
       "lat": "-7.51646835",
       "long": "109.079684557",
       "installed": "true",
       "locked": "false",
       "installDate": "1279027680000",
       "removalDate": [],
       "temporary": "false",
       "nbBikes": "5",
       "nbEmptyDocks": "11",
       "nbDocks": "16"
    },
    {
       "id": "88",
       "name": "Bayley Street , Bloomsbury",
       "terminalName": "001006",
       "lat": "-7.51858757",
       "long": "109.132053392",
       "installed": "true",
       "locked": "false",
       "installDate": "1279028280000",
       "removalDate": [],
       "temporary": "false",
       "nbBikes": "8",
       "nbEmptyDocks": "17",
       "nbDocks": "25"
    },
    {
       "id": "89",
       "name": "Tavistock Place, Bloomsbury",
       "terminalName": "003439",
       "lat": "-7.5262503",
       "long": "109.123509611",
       "installed": "true",
       "locked": "false",
       "installDate": "1279029360000",
       "removalDate": [],
       "temporary": "false",
       "nbBikes": "8",
       "nbEmptyDocks": "11",
       "nbDocks": "19"
    },
    {
       "id": "90",
       "name": "Harrington Square 1, Camden Town",
       "terminalName": "001038",
       "lat": "-7.53301907",
       "long": "109.139174593",
       "installed": "true",
       "locked": "false",
       "installDate": "1279030020000",
       "removalDate": [],
       "temporary": "false",
       "nbBikes": "24",
       "nbEmptyDocks": "3",
       "nbDocks": "27"
    },
    {
       "id": "91",
       "name": "Walnut Tree Walk, Vauxhall",
       "terminalName": "001076",
       "lat": "-7.49368637",
       "long": "109.111014912",
       "installed": "true",
       "locked": "false",
       "installDate": "1279036740000",
       "removalDate": [],
       "temporary": "false",
       "nbBikes": "10",
       "nbEmptyDocks": "10",
       "nbDocks": "20"
    },
    {
       "id": "92",
       "name": "Borough Road, Elephant  Castle",
       "terminalName": "001082",
       "lat": "-7.49889832",
       "long": "109.100440521",
       "installed": "true",
       "locked": "false",
       "installDate": "1279037040000",
       "removalDate": [],
       "temporary": "false",
       "nbBikes": "19",
       "nbEmptyDocks": "22",
       "nbDocks": "41"
    },
    {
       "id": "93",
       "name": "Cloudesley Road, Angel",
       "terminalName": "002586",
       "lat": "-7.53440868",
       "long": "109.109025404",
       "installed": "true",
       "locked": "false",
       "installDate": "1279037760000",
       "removalDate": [],
       "temporary": "false",
       "nbBikes": "1",
       "nbEmptyDocks": "36",
       "nbDocks": "37"
    },
    {
       "id": "94",
       "name": "Bricklayers Arms, Borough",
       "terminalName": "001070",
       "lat": "-7.49506109",
       "long": "109.085814489",
       "installed": "true",
       "locked": "false",
       "installDate": "1279038420000",
       "removalDate": [],
       "temporary": "false",
       "nbBikes": "2",
       "nbEmptyDocks": "26",
       "nbDocks": "28"
    },
    {
       "id": "95",
       "name": "Aldersgate Street, Barbican",
       "terminalName": "001065",
       "lat": "-7.5208417",
       "long": "109.097340162",
       "installed": "true",
       "locked": "false",
       "installDate": "1279096560000",
       "removalDate": [],
       "temporary": "false",
       "nbBikes": "5",
       "nbEmptyDocks": "10",
       "nbDocks": "15"
    },
    {
       "id": "96",
       "name": "Falkirk Street, Hoxton",
       "terminalName": "001047",
       "lat": "-7.53095071",
       "long": "109.078505384",
       "installed": "true",
       "locked": "false",
       "installDate": "1279096980000",
       "removalDate": [],
       "temporary": "false",
       "nbBikes": "4",
       "nbEmptyDocks": "22",
       "nbDocks": "26"
    },
    {
       "id": "97",
       "name": "Gloucester Road (North), Kensington",
       "terminalName": "003447",
       "lat": "-7.49792478",
       "long": "109.183834706",
       "installed": "true",
       "locked": "false",
       "installDate": "1279097580000",
       "removalDate": [],
       "temporary": "false",
       "nbBikes": "15",
       "nbEmptyDocks": "3",
       "nbDocks": "18"
    },
    {
       "id": "98",
       "name": "Hampstead Road, Euston",
       "terminalName": "000972",
       "lat": "-7.52554222",
       "long": "109.138231303",
       "installed": "true",
       "locked": "false",
       "installDate": "1279099080000",
       "removalDate": [],
       "temporary": "false",
       "nbBikes": "34",
       "nbEmptyDocks": "19",
       "nbDocks": "54"
    },
    {
       "id": "99",
       "name": "Old Quebec Street, Marylebone",
       "terminalName": "001085",
       "lat": "-7.51457763",
       "long": "109.158264483",
       "installed": "true",
       "locked": "false",
       "installDate": "1279099680000",
       "removalDate": [],
       "temporary": "false",
       "nbBikes": "7",
       "nbEmptyDocks": "8",
       "nbDocks": "16"
    },
    {
       "id": "100",
       "name": "Albert Embankment, Vauxhall",
       "terminalName": "001059",
       "lat": "-7.49043573",
       "long": "109.122806861",
       "installed": "true",
       "locked": "false",
       "installDate": "1279099860000",
       "removalDate": [],
       "temporary": "false",
       "nbBikes": "14",
       "nbEmptyDocks": "10",
       "nbDocks": "24"
    },
    {
       "id": "101",
       "name": "Queen Street 1, Bank",
       "terminalName": "000999",
       "lat": "-7.51155322",
       "long": "109.0929401",
       "installed": "true",
       "locked": "false",
       "installDate": "1279102680000",
       "removalDate": [],
       "temporary": "false",
       "nbBikes": "2",
       "nbEmptyDocks": "19",
       "nbDocks": "22"
    },
    {
       "id": "102",
       "name": "Jewry Street, Aldgate",
       "terminalName": "001045",
       "lat": "-7.51340693",
       "long": "109.076793375",
       "installed": "true",
       "locked": "false",
       "installDate": "1279102860000",
       "removalDate": [],
       "temporary": "false",
       "nbBikes": "2",
       "nbEmptyDocks": "15",
       "nbDocks": "17"
    },
    {
       "id": "103",
       "name": "Vicarage Gate, Kensington",
       "terminalName": "003441",
       "lat": "-7.50472376",
       "long": "109.192538767",
       "installed": "true",
       "locked": "false",
       "installDate": "1279103520000",
       "removalDate": [],
       "temporary": "false",
       "nbBikes": "5",
       "nbEmptyDocks": "13",
       "nbDocks": "18"
    },
    {
       "id": "104",
       "name": "Crosswall, Tower",
       "terminalName": "000991",
       "lat": "-7.51159481",
       "long": "109.077121322",
       "installed": "true",
       "locked": "false",
       "installDate": "1279103760000",
       "removalDate": [],
       "temporary": "false",
       "nbBikes": "15",
       "nbEmptyDocks": "19",
       "nbDocks": "34"
    },
    {
       "id": "105",
       "name": "Westbourne Grove, Bayswater",
       "terminalName": "001041",
       "lat": "-7.51552971",
       "long": "109.190240716",
       "installed": "true",
       "locked": "false",
       "installDate": "1279105320000",
       "removalDate": [],
       "temporary": "false",
       "nbBikes": "8",
       "nbEmptyDocks": "17",
       "nbDocks": "26"
    },
    {
       "id": "106",
       "name": "Woodstock Street, Mayfair",
       "terminalName": "001042",
       "lat": "-7.51410514",
       "long": "109.147301667",
       "installed": "true",
       "locked": "false",
       "installDate": "1279106880000",
       "removalDate": [],
       "temporary": "false",
       "nbBikes": "8",
       "nbEmptyDocks": "13",
       "nbDocks": "21"
    },
    {
       "id": "107",
       "name": "Finsbury Leisure Centre, St. Luke's",
       "terminalName": "001049",
       "lat": "-7.52600832",
       "long": "109.096317627",
       "installed": "true",
       "locked": "false",
       "installDate": "1279107480000",
       "removalDate": [],
       "temporary": "false",
       "nbBikes": "4",
       "nbEmptyDocks": "16",
       "nbDocks": "20"
    },
    {
       "id": "108",
       "name": "Abbey Orchard Street, Westminster",
       "terminalName": "003429",
       "lat": "-7.49812559",
       "long": "109.132102166",
       "installed": "true",
       "locked": "false",
       "installDate": "1279107720000",
       "removalDate": [],
       "temporary": "false",
       "nbBikes": "28",
       "nbEmptyDocks": "0",
       "nbDocks": "29"
    },
    {
       "id": "109",
       "name": "Soho Square , Soho",
       "terminalName": "001052",
       "lat": "-7.51563144",
       "long": "109.132328837",
       "installed": "true",
       "locked": "false",
       "installDate": "1279108320000",
       "removalDate": [],
       "temporary": "false",
       "nbBikes": "28",
       "nbEmptyDocks": "28",
       "nbDocks": "57"
    },
    {
       "id": "110",
       "name": "Wellington Road, St. John's Wood",
       "terminalName": "001055",
       "lat": "-7.53304322",
       "long": "109.172528678",
       "installed": "true",
       "locked": "false",
       "installDate": "1279108920000",
       "removalDate": [],
       "temporary": "false",
       "nbBikes": "6",
       "nbEmptyDocks": "11",
       "nbDocks": "17"
    },
    {
       "id": "111",
       "name": "Park Lane , Hyde Park",
       "terminalName": "001037",
       "lat": "-7.5100172",
       "long": "109.157275636",
       "installed": "true",
       "locked": "false",
       "installDate": "1279109160000",
       "removalDate": [],
       "temporary": "false",
       "nbBikes": "1",
       "nbEmptyDocks": "27",
       "nbDocks": "28"
    },
    {
       "id": "112",
       "name": "Stonecutter Street, Holborn",
       "terminalName": "001061",
       "lat": "-7.51580998",
       "long": "109.105270275",
       "installed": "true",
       "locked": "false",
       "installDate": "1279115460000",
       "removalDate": [],
       "temporary": "false",
       "nbBikes": "7",
       "nbEmptyDocks": "14",
       "nbDocks": "21"
    },
    {
       "id": "113",
       "name": "Gloucester Road (Central), South Kensington",
       "terminalName": "003435",
       "lat": "-7.49646288",
       "long": "109.183289032",
       "installed": "true",
       "locked": "false",
       "installDate": "1279116600000",
       "removalDate": [],
       "temporary": "false",
       "nbBikes": "18",
       "nbEmptyDocks": "1",
       "nbDocks": "19"
    },
    {
       "id": "114",
       "name": "Park Road (Baker Street), The Regent's Park",
       "terminalName": "001050",
       "lat": "-7.52451738",
       "long": "109.158963647",
       "installed": "true",
       "locked": "false",
       "installDate": "1279119900000",
       "removalDate": [],
       "temporary": "false",
       "nbBikes": "15",
       "nbEmptyDocks": "7",
       "nbDocks": "22"
    },
    {
       "id": "115",
       "name": "Braham Street, Aldgate",
       "terminalName": "001062",
       "lat": "-7.51423368",
       "long": "109.073537654",
       "installed": "true",
       "locked": "false",
       "installDate": "1279120680000",
       "removalDate": [],
       "temporary": "false",
       "nbBikes": "10",
       "nbEmptyDocks": "24",
       "nbDocks": "34"
    },
    {
       "id": "116",
       "name": "Little Argyll Street, West End",
       "terminalName": "000995",
       "lat": "-7.51449962",
       "long": "109.141423695",
       "installed": "true",
       "locked": "false",
       "installDate": "1279122360000",
       "removalDate": [],
       "temporary": "false",
       "nbBikes": "3",
       "nbEmptyDocks": "18",
       "nbDocks": "21"
    },
    {
       "id": "117",
       "name": "Lollard Street, Vauxhall",
       "terminalName": "000998",
       "lat": "-7.49288067",
       "long": "109.114934001",
       "installed": "true",
       "locked": "false",
       "installDate": "1279124220000",
       "removalDate": [],
       "temporary": "false",
       "nbBikes": "14",
       "nbEmptyDocks": "11",
       "nbDocks": "25"
    },
    {
       "id": "118",
       "name": "Rochester Row, Westminster",
       "terminalName": "003457",
       "lat": "-7.49582705",
       "long": "109.13547809",
       "installed": "true",
       "locked": "false",
       "installDate": "1279124520000",
       "removalDate": [],
       "temporary": "false",
       "nbBikes": "11",
       "nbEmptyDocks": "1",
       "nbDocks": "13"
    },
    {
       "id": "119",
       "name": "Bath Street, St. Luke's",
       "terminalName": "000964",
       "lat": "-7.52589324",
       "long": "109.090847761",
       "installed": "true",
       "locked": "false",
       "installDate": "1279124760000",
       "removalDate": [],
       "temporary": "false",
       "nbBikes": "11",
       "nbEmptyDocks": "7",
       "nbDocks": "18"
    },
    {
       "id": "120",
       "name": "The Guildhall, Guildhall",
       "terminalName": "001044",
       "lat": "-7.51573534",
       "long": "109.093080779",
       "installed": "true",
       "locked": "false",
       "installDate": "1279187040000",
       "removalDate": [],
       "temporary": "false",
       "nbBikes": "7",
       "nbEmptyDocks": "10",
       "nbDocks": "17"
    },
    {
       "id": "121",
       "name": "Baker Street, Marylebone",
       "terminalName": "001086",
       "lat": "-7.51891348",
       "long": "109.156166631",
       "installed": "true",
       "locked": "false",
       "installDate": "1279189200000",
       "removalDate": [],
       "temporary": "false",
       "nbBikes": "12",
       "nbEmptyDocks": "10",
       "nbDocks": "22"
    },
    {
       "id": "122",
       "name": "Norton Folgate, Liverpool Street",
       "terminalName": "001068",
       "lat": "-7.52111369",
       "long": "109.078869751",
       "installed": "true",
       "locked": "false",
       "installDate": "1279190040000",
       "removalDate": [],
       "temporary": "false",
       "nbBikes": "8",
       "nbEmptyDocks": "14",
       "nbDocks": "23"
    },
    {
       "id": "123",
       "name": "St. John Street, Finsbury",
       "terminalName": "000992",
       "lat": "-7.52836014",
       "long": "109.104724625",
       "installed": "true",
       "locked": "false",
       "installDate": "1279191300000",
       "removalDate": [],
       "temporary": "false",
       "nbBikes": "5",
       "nbEmptyDocks": "13",
       "nbDocks": "18"
    },
    {
       "id": "124",
       "name": "Eaton Square, Belgravia",
       "terminalName": "001069",
       "lat": "-7.49654462",
       "long": "109.150905245",
       "installed": "true",
       "locked": "false",
       "installDate": "1279191540000",
       "removalDate": [],
       "temporary": "false",
       "nbBikes": "8",
       "nbEmptyDocks": "11",
       "nbDocks": "20"
    },
    {
       "id": "125",
       "name": "Borough High Street, The Borough",
       "terminalName": "000996",
       "lat": "-7.50069491",
       "long": "109.094524319",
       "installed": "true",
       "locked": "false",
       "installDate": "1279192200000",
       "removalDate": [],
       "temporary": "false",
       "nbBikes": "13",
       "nbEmptyDocks": "7",
       "nbDocks": "21"
    },
    {
       "id": "126",
       "name": "Museum of London, Barbican",
       "terminalName": "001043",
       "lat": "-7.51782144",
       "long": "109.096496865",
       "installed": "true",
       "locked": "false",
       "installDate": "1279193340000",
       "removalDate": [],
       "temporary": "false",
       "nbBikes": "20",
       "nbEmptyDocks": "32",
       "nbDocks": "52"
    },
    {
       "id": "127",
       "name": "Wood Street, Guildhall",
       "terminalName": "001063",
       "lat": "-7.51700801",
       "long": "109.09388536",
       "installed": "true",
       "locked": "false",
       "installDate": "1279193520000",
       "removalDate": [],
       "temporary": "false",
       "nbBikes": "2",
       "nbEmptyDocks": "15",
       "nbDocks": "17"
    },
    {
       "id": "128",
       "name": "Emperor's Gate, South Kensington",
       "terminalName": "001116",
       "lat": "-7.49536226",
       "long": "109.185296516",
       "installed": "true",
       "locked": "false",
       "installDate": "1279194060000",
       "removalDate": [],
       "temporary": "false",
       "nbBikes": "10",
       "nbEmptyDocks": "12",
       "nbDocks": "22"
    },
    {
       "id": "129",
       "name": "Golden Square, Soho",
       "terminalName": "003451",
       "lat": "-7.5118973",
       "long": "109.137043852",
       "installed": "true",
       "locked": "false",
       "installDate": "1279198500000",
       "removalDate": [],
       "temporary": "false",
       "nbBikes": "9",
       "nbEmptyDocks": "9",
       "nbDocks": "18"
    },
    {
       "id": "130",
       "name": "Tower Gardens , Tower",
       "terminalName": "001071",
       "lat": "-7.50950627",
       "long": "109.075459482",
       "installed": "true",
       "locked": "false",
       "installDate": "1279198800000",
       "removalDate": [],
       "temporary": "false",
       "nbBikes": "23",
       "nbEmptyDocks": "1",
       "nbDocks": "24"
    },
    {
       "id": "131",
       "name": "Eversholt Street , Camden Town",
       "terminalName": "001005",
       "lat": "-7.53300545",
       "long": "109.136792671",
       "installed": "true",
       "locked": "false",
       "installDate": "1279199280000",
       "removalDate": [],
       "temporary": "false",
       "nbBikes": "1",
       "nbEmptyDocks": "14",
       "nbDocks": "16"
    },
    {
       "id": "132",
       "name": "Bethnal Green Road, Shoreditch",
       "terminalName": "000973",
       "lat": "-7.52364804",
       "long": "109.074754872",
       "installed": "true",
       "locked": "false",
       "installDate": "1279199520000",
       "removalDate": [],
       "temporary": "false",
       "nbBikes": "16",
       "nbEmptyDocks": "22",
       "nbDocks": "38"
    },
    {
       "id": "133",
       "name": "Derry Street, Kensington",
       "terminalName": "003436",
       "lat": "-7.50136494",
       "long": "109.191462381",
       "installed": "true",
       "locked": "false",
       "installDate": "1279200240000",
       "removalDate": [],
       "temporary": "false",
       "nbBikes": "11",
       "nbEmptyDocks": "6",
       "nbDocks": "18"
    },
    {
       "id": "134",
       "name": "Wapping High Street, Wapping",
       "terminalName": "001039",
       "lat": "-7.504904",
       "long": "109.06797",
       "installed": "true",
       "locked": "false",
       "installDate": "1279200900000",
       "removalDate": [],
       "temporary": "false",
       "nbBikes": "12",
       "nbEmptyDocks": "8",
       "nbDocks": "20"
    },
    {
       "id": "135",
       "name": "Clerkenwell Green, Clerkenwell",
       "terminalName": "001053",
       "lat": "-7.52326004",
       "long": "109.104708922",
       "installed": "true",
       "locked": "false",
       "installDate": "1279201080000",
       "removalDate": [],
       "temporary": "false",
       "nbBikes": "17",
       "nbEmptyDocks": "4",
       "nbDocks": "21"
    },
    {
       "id": "136",
       "name": "Queen Victoria Street, St. Paul's",
       "terminalName": "001048",
       "lat": "-7.51196176",
       "long": "109.097441687",
       "installed": "true",
       "locked": "false",
       "installDate": "1279201200000",
       "removalDate": [],
       "temporary": "false",
       "nbBikes": "13",
       "nbEmptyDocks": "18",
       "nbDocks": "31"
    },
    {
       "id": "138",
       "name": "Green Street, Mayfair",
       "terminalName": "003464",
       "lat": "-7.51227622",
       "long": "109.157436972",
       "installed": "true",
       "locked": "false",
       "installDate": "1279205220000",
       "removalDate": [],
       "temporary": "false",
       "nbBikes": "11",
       "nbEmptyDocks": "8",
       "nbDocks": "19"
    },
    {
       "id": "139",
       "name": "Lambeth Road, Vauxhall",
       "terminalName": "001078",
       "lat": "-7.49488108",
       "long": "109.117974901",
       "installed": "true",
       "locked": "false",
       "installDate": "1279205460000",
       "removalDate": [],
       "temporary": "false",
       "nbBikes": "14",
       "nbEmptyDocks": "4",
       "nbDocks": "18"
    },
    {
       "id": "140",
       "name": "Finsbury Square , Moorgate",
       "terminalName": "001056",
       "lat": "-7.52096262",
       "long": "109.085634242",
       "installed": "true",
       "locked": "false",
       "installDate": "1279205580000",
       "removalDate": [],
       "temporary": "false",
       "nbBikes": "9",
       "nbEmptyDocks": "24",
       "nbDocks": "33"
    },
    {
       "id": "141",
       "name": "Chapel Place, Marylebone",
       "terminalName": "001003",
       "lat": "-7.51530805",
       "long": "109.147203711",
       "installed": "true",
       "locked": "false",
       "installDate": "1279210980000",
       "removalDate": [],
       "temporary": "false",
       "nbBikes": "12",
       "nbEmptyDocks": "17",
       "nbDocks": "29"
    },
    {
       "id": "142",
       "name": "West Cromwell Road, Earl's Court",
       "terminalName": "001001",
       "lat": "-7.49372451",
       "long": "109.198286569",
       "installed": "true",
       "locked": "false",
       "installDate": "1279211220000",
       "removalDate": [],
       "temporary": "false",
       "nbBikes": "17",
       "nbEmptyDocks": "7",
       "nbDocks": "24"
    },
    {
       "id": "143",
       "name": "Pont Street, Knightsbridge",
       "terminalName": "001114",
       "lat": "-7.4968865",
       "long": "109.161203828",
       "installed": "true",
       "locked": "false",
       "installDate": "1279211400000",
       "removalDate": [],
       "temporary": "false",
       "nbBikes": "8",
       "nbEmptyDocks": "16",
       "nbDocks": "24"
    },
    {
       "id": "144",
       "name": "Kennington Cross, Kennington",
       "terminalName": "001093",
       "lat": "-7.48894022",
       "long": "109.111435796",
       "installed": "true",
       "locked": "false",
       "installDate": "1279211580000",
       "removalDate": [],
       "temporary": "false",
       "nbBikes": "29",
       "nbEmptyDocks": "16",
       "nbDocks": "47"
    },
    {
       "id": "145",
       "name": "Ilchester Place, Kensington",
       "terminalName": "001115",
       "lat": "-7.50074359",
       "long": "109.202759212",
       "installed": "true",
       "locked": "false",
       "installDate": "1279212180000",
       "removalDate": [],
       "temporary": "false",
       "nbBikes": "12",
       "nbEmptyDocks": "12",
       "nbDocks": "24"
    },
    {
       "id": "146",
       "name": "Vauxhall Bridge , Pimlico",
       "terminalName": "001046",
       "lat": "-7.48836528",
       "long": "109.129361842",
       "installed": "true",
       "locked": "false",
       "installDate": "1279212360000",
       "removalDate": [],
       "temporary": "false",
       "nbBikes": "9",
       "nbEmptyDocks": "26",
       "nbDocks": "35"
    },
    {
       "id": "148",
       "name": "Tachbrook Street, Victoria",
       "terminalName": "000965",
       "lat": "-7.49211134",
       "long": "109.138364847",
       "installed": "true",
       "locked": "false",
       "installDate": [],
       "removalDate": [],
       "temporary": "false",
       "nbBikes": "6",
       "nbEmptyDocks": "9",
       "nbDocks": "16"
    },
    {
       "id": "149",
       "name": "Kennington Road Post Office, Oval",
       "terminalName": "001073",
       "lat": "-7.48478899",
       "long": "109.110683213",
       "installed": "true",
       "locked": "false",
       "installDate": "1279215360000",
       "removalDate": [],
       "temporary": "false",
       "nbBikes": "9",
       "nbEmptyDocks": "9",
       "nbDocks": "18"
    },
    {
       "id": "150",
       "name": "Holy Trinity Brompton, Knightsbridge",
       "terminalName": "001002",
       "lat": "-7.49705603",
       "long": "109.168917077",
       "installed": "true",
       "locked": "false",
       "installDate": "1279215540000",
       "removalDate": [],
       "temporary": "false",
       "nbBikes": "25",
       "nbEmptyDocks": "3",
       "nbDocks": "28"
    },
    {
       "id": "151",
       "name": "Chepstow Villas, Notting Hill",
       "terminalName": "001120",
       "lat": "-7.51213691",
       "long": "109.201554966",
       "installed": "true",
       "locked": "false",
       "installDate": "1279215720000",
       "removalDate": [],
       "temporary": "false",
       "nbBikes": "5",
       "nbEmptyDocks": "21",
       "nbDocks": "26"
    },
    {
       "id": "152",
       "name": "Hampton Street, Walworth",
       "terminalName": "001118",
       "lat": "-7.49217002",
       "long": "109.101536865",
       "installed": "true",
       "locked": "false",
       "installDate": "1279215900000",
       "removalDate": [],
       "temporary": "false",
       "nbBikes": "19",
       "nbEmptyDocks": "2",
       "nbDocks": "21"
    },
    {
       "id": "153",
       "name": "Bayswater Road, Hyde Park",
       "terminalName": "001096",
       "lat": "-7.511933",
       "long": "109.174411",
       "installed": "true",
       "locked": "false",
       "installDate": "1279216080000",
       "removalDate": [],
       "temporary": "false",
       "nbBikes": "13",
       "nbEmptyDocks": "14",
       "nbDocks": "27"
    },
    {
       "id": "154",
       "name": "Waterloo Station 3, Waterloo",
       "terminalName": "001072",
       "lat": "-7.50379168",
       "long": "109.11282408",
       "installed": "true",
       "locked": "false",
       "installDate": [],
       "removalDate": [],
       "temporary": "false",
       "nbBikes": "10",
       "nbEmptyDocks": "25",
       "nbDocks": "35"
    },
    {
       "id": "155",
       "name": "Lexham Gardens, Kensington",
       "terminalName": "001121",
       "lat": "-7.49586666",
       "long": "109.191933711",
       "installed": "true",
       "locked": "false",
       "installDate": "1279272660000",
       "removalDate": [],
       "temporary": "false",
       "nbBikes": "5",
       "nbEmptyDocks": "13",
       "nbDocks": "19"
    },
    {
       "id": "156",
       "name": "New Kent Road, The Borough",
       "terminalName": "000966",
       "lat": "-7.49443626",
       "long": "109.092921165",
       "installed": "true",
       "locked": "false",
       "installDate": "1279273080000",
       "removalDate": [],
       "temporary": "false",
       "nbBikes": "31",
       "nbEmptyDocks": "2",
       "nbDocks": "33"
    },
    {
       "id": "157",
       "name": "Wright's Lane, Kensington",
       "terminalName": "001094",
       "lat": "-7.50039792",
       "long": "109.193068385",
       "installed": "true",
       "locked": "false",
       "installDate": "1279273200000",
       "removalDate": [],
       "temporary": "false",
       "nbBikes": "12",
       "nbEmptyDocks": "25",
       "nbDocks": "37"
    },
    {
       "id": "158",
       "name": "Trebovir Road, Earl's Court",
       "terminalName": "001113",
       "lat": "-7.49085368",
       "long": "109.196170309",
       "installed": "true",
       "locked": "false",
       "installDate": "1279273320000",
       "removalDate": [],
       "temporary": "false",
       "nbBikes": "8",
       "nbEmptyDocks": "10",
       "nbDocks": "18"
    },
    {
       "id": "159",
       "name": "Great Marlborough Street, Soho",
       "terminalName": "001125",
       "lat": "-7.51461995",
       "long": "109.137841333",
       "installed": "true",
       "locked": "false",
       "installDate": "1279273560000",
       "removalDate": [],
       "temporary": "false",
       "nbBikes": "8",
       "nbEmptyDocks": "30",
       "nbDocks": "39"
    },
    {
       "id": "160",
       "name": "Waterloo Place, St. James's",
       "terminalName": "003458",
       "lat": "-7.50663341",
       "long": "109.131773845",
       "installed": "true",
       "locked": "false",
       "installDate": "1279274280000",
       "removalDate": [],
       "temporary": "false",
       "nbBikes": "9",
       "nbEmptyDocks": "11",
       "nbDocks": "20"
    },
    {
       "id": "161",
       "name": "Guildhouse Street, Victoria",
       "terminalName": "003478",
       "lat": "-7.49234577",
       "long": "109.141334487",
       "installed": "true",
       "locked": "false",
       "installDate": "1279286940000",
       "removalDate": [],
       "temporary": "false",
       "nbBikes": "6",
       "nbEmptyDocks": "10",
       "nbDocks": "16"
    },
    {
       "id": "162",
       "name": "Southampton Place, Holborn",
       "terminalName": "001123",
       "lat": "-7.51760685",
       "long": "109.121328408",
       "installed": "true",
       "locked": "false",
       "installDate": "1279287120000",
       "removalDate": [],
       "temporary": "false",
       "nbBikes": "4",
       "nbEmptyDocks": "16",
       "nbDocks": "20"
    },
    {
       "id": "163",
       "name": "Sloane Avenue, Knightsbridge",
       "terminalName": "003461",
       "lat": "-7.4931848",
       "long": "109.167894973",
       "installed": "true",
       "locked": "false",
       "installDate": "1279287300000",
       "removalDate": [],
       "temporary": "false",
       "nbBikes": "15",
       "nbEmptyDocks": "12",
       "nbDocks": "27"
    },
    {
       "id": "164",
       "name": "Cleveland Gardens, Bayswater",
       "terminalName": "001178",
       "lat": "-7.515607",
       "long": "109.183118788",
       "installed": "true",
       "locked": "false",
       "installDate": "1279287600000",
       "removalDate": [],
       "temporary": "false",
       "nbBikes": "2",
       "nbEmptyDocks": "14",
       "nbDocks": "16"
    },
    {
       "id": "165",
       "name": "Orsett Terrace, Bayswater",
       "terminalName": "002585",
       "lat": "-7.517932",
       "long": "109.183716959",
       "installed": "true",
       "locked": "false",
       "installDate": "1279287960000",
       "removalDate": [],
       "temporary": "false",
       "nbBikes": "7",
       "nbEmptyDocks": "8",
       "nbDocks": "15"
    },
    {
       "id": "166",
       "name": "Seville Street, Knightsbridge",
       "terminalName": "001177",
       "lat": "-7.50185512",
       "long": "109.159237081",
       "installed": "true",
       "locked": "false",
       "installDate": "1279288140000",
       "removalDate": [],
       "temporary": "false",
       "nbBikes": "22",
       "nbEmptyDocks": "4",
       "nbDocks": "27"
    },
    {
       "id": "167",
       "name": "Eccleston Place, Victoria",
       "terminalName": "003465",
       "lat": "-7.49395092",
       "long": "109.147624377",
       "installed": "true",
       "locked": "false",
       "installDate": [],
       "removalDate": [],
       "temporary": "false",
       "nbBikes": "12",
       "nbEmptyDocks": "6",
       "nbDocks": "19"
    },
    {
       "id": "168",
       "name": "Argyll Road, Kensington",
       "terminalName": "003463",
       "lat": "-7.50040123",
       "long": "109.195455928",
       "installed": "true",
       "locked": "false",
       "installDate": "1279289400000",
       "removalDate": [],
       "temporary": "false",
       "nbBikes": "13",
       "nbEmptyDocks": "5",
       "nbDocks": "19"
    },
    {
       "id": "169",
       "name": "Porchester Place, Paddington",
       "terminalName": "003477",
       "lat": "-7.51474612",
       "long": "109.165164288",
       "installed": "true",
       "locked": "false",
       "installDate": "1279289760000",
       "removalDate": [],
       "temporary": "false",
       "nbBikes": "11",
       "nbEmptyDocks": "6",
       "nbDocks": "18"
    },
    {
       "id": "170",
       "name": "Hardwick Street, Clerkenwell",
       "terminalName": "001057",
       "lat": "-7.52784273",
       "long": "109.108068155",
       "installed": "true",
       "locked": "false",
       "installDate": "1279290180000",
       "removalDate": [],
       "temporary": "false",
       "nbBikes": "18",
       "nbEmptyDocks": "12",
       "nbDocks": "30"
    },
    {
       "id": "171",
       "name": "Collingham Gardens, Earl's Court",
       "terminalName": "003459",
       "lat": "-7.4916156",
       "long": "109.186753859",
       "installed": "true",
       "locked": "false",
       "installDate": "1279291200000",
       "removalDate": [],
       "temporary": "false",
       "nbBikes": "4",
       "nbEmptyDocks": "10",
       "nbDocks": "14"
    },
    {
       "id": "172",
       "name": "Sumner Place, South Kensington",
       "terminalName": "001124",
       "lat": "-7.49121192",
       "long": "109.173715911",
       "installed": "true",
       "locked": "false",
       "installDate": "1279291500000",
       "removalDate": [],
       "temporary": "false",
       "nbBikes": "15",
       "nbEmptyDocks": "4",
       "nbDocks": "19"
    },
    {
       "id": "173",
       "name": "Waterloo Road, South Bank",
       "terminalName": "001176",
       "lat": "-7.50486",
       "long": "109.113001",
       "installed": "true",
       "locked": "false",
       "installDate": "1279292700000",
       "removalDate": [],
       "temporary": "false",
       "nbBikes": "6",
       "nbEmptyDocks": "8",
       "nbDocks": "15"
    },
    {
       "id": "174",
       "name": "Strand, Strand",
       "terminalName": "001100",
       "lat": "-7.512529",
       "long": "109.115163",
       "installed": "true",
       "locked": "false",
       "installDate": "1279295940000",
       "removalDate": [],
       "temporary": "false",
       "nbBikes": "10",
       "nbEmptyDocks": "26",
       "nbDocks": "36"
    },
    {
       "id": "175",
       "name": "Worship Street, Shoreditch",
       "terminalName": "000997",
       "lat": "-7.521668",
       "long": "109.079608554",
       "installed": "true",
       "locked": "false",
       "installDate": "1529674980000",
       "removalDate": [],
       "temporary": "false",
       "nbBikes": "6",
       "nbEmptyDocks": "44",
       "nbDocks": "51"
    },
    {
       "id": "176",
       "name": "Gloucester Terrace, Bayswater",
       "terminalName": "001173",
       "lat": "-7.51791921",
       "long": "109.188098863",
       "installed": "true",
       "locked": "false",
       "installDate": "1279297560000",
       "removalDate": [],
       "temporary": "false",
       "nbBikes": "8",
       "nbEmptyDocks": "14",
       "nbDocks": "23"
    },
    {
       "id": "177",
       "name": "Ashley Place, Victoria",
       "terminalName": "001122",
       "lat": "-7.49616092",
       "long": "109.140947636",
       "installed": "true",
       "locked": "false",
       "installDate": "1279297740000",
       "removalDate": [],
       "temporary": "false",
       "nbBikes": "24",
       "nbEmptyDocks": "1",
       "nbDocks": "25"
    },
    {
       "id": "178",
       "name": "Warwick Square, Pimlico",
       "terminalName": "003460",
       "lat": "-7.48985626",
       "long": "109.141923621",
       "installed": "true",
       "locked": "false",
       "installDate": "1279297920000",
       "removalDate": [],
       "temporary": "false",
       "nbBikes": "6",
       "nbEmptyDocks": "13",
       "nbDocks": "19"
    },
    {
       "id": "180",
       "name": "North Audley Street, Mayfair",
       "terminalName": "001126",
       "lat": "-7.5129118",
       "long": "109.153645496",
       "installed": "true",
       "locked": "false",
       "installDate": "1279298220000",
       "removalDate": [],
       "temporary": "false",
       "nbBikes": "12",
       "nbEmptyDocks": "5",
       "nbDocks": "17"
    },
    {
       "id": "181",
       "name": "Belgrave Square, Belgravia",
       "terminalName": "003473",
       "lat": "-7.49941247",
       "long": "109.152317537",
       "installed": "true",
       "locked": "false",
       "installDate": "1279298460000",
       "removalDate": [],
       "temporary": "false",
       "nbBikes": "17",
       "nbEmptyDocks": "4",
       "nbDocks": "21"
    },
    {
       "id": "182",
       "name": "Bell Street , Marylebone",
       "terminalName": "001166",
       "lat": "-7.52202903",
       "long": "109.165842551",
       "installed": "true",
       "locked": "false",
       "installDate": "1279363140000",
       "removalDate": [],
       "temporary": "false",
       "nbBikes": "9",
       "nbEmptyDocks": "9",
       "nbDocks": "18"
    },
    {
       "id": "183",
       "name": "Riverlight North, Nine Elms",
       "terminalName": "001165",
       "lat": "-7.482362",
       "long": "109.13612398",
       "installed": "true",
       "locked": "false",
       "installDate": "1279364160000",
       "removalDate": [],
       "temporary": "false",
       "nbBikes": "12",
       "nbEmptyDocks": "12",
       "nbDocks": "24"
    },
    {
       "id": "184",
       "name": "Portland Place, Marylebone",
       "terminalName": "001164",
       "lat": "-7.52071513",
       "long": "109.14521173",
       "installed": "true",
       "locked": "false",
       "installDate": "1279364280000",
       "removalDate": [],
       "temporary": "false",
       "nbBikes": "22",
       "nbEmptyDocks": "12",
       "nbDocks": "34"
    },
    {
       "id": "185",
       "name": "Alderney Street, Pimlico",
       "terminalName": "001174",
       "lat": "-7.48805753",
       "long": "109.140741432",
       "installed": "true",
       "locked": "false",
       "installDate": "1279365360000",
       "removalDate": [],
       "temporary": "false",
       "nbBikes": "14",
       "nbEmptyDocks": "0",
       "nbDocks": "14"
    },
    {
       "id": "186",
       "name": "South Wharf Road, Paddington",
       "terminalName": "001167",
       "lat": "-7.51733558",
       "long": "109.175810943",
       "installed": "true",
       "locked": "false",
       "installDate": "1279365480000",
       "removalDate": [],
       "temporary": "false",
       "nbBikes": "10",
       "nbEmptyDocks": "6",
       "nbDocks": "16"
    },
    {
       "id": "187",
       "name": "Queen's Gate (South), South Kensington",
       "terminalName": "001172",
       "lat": "-7.49247977",
       "long": "109.178433004",
       "installed": "true",
       "locked": "false",
       "installDate": "1279365720000",
       "removalDate": [],
       "temporary": "false",
       "nbBikes": "10",
       "nbEmptyDocks": "15",
       "nbDocks": "25"
    },
    {
       "id": "188",
       "name": "Nutford Place, Marylebone",
       "terminalName": "001112",
       "lat": "-7.5165179",
       "long": "109.164393768",
       "installed": "true",
       "locked": "false",
       "installDate": "1279376760000",
       "removalDate": [],
       "temporary": "false",
       "nbBikes": "16",
       "nbEmptyDocks": "2",
       "nbDocks": "18"
    },
    {
       "id": "189",
       "name": "Claremont Square, Angel",
       "terminalName": "001104",
       "lat": "-7.53166681",
       "long": "109.109914711",
       "installed": "true",
       "locked": "false",
       "installDate": "1279377180000",
       "removalDate": [],
       "temporary": "false",
       "nbBikes": "1",
       "nbEmptyDocks": "17",
       "nbDocks": "18"
    },
    {
       "id": "190",
       "name": "Rampayne Street, Pimlico",
       "terminalName": "001106",
       "lat": "-7.48997562",
       "long": "109.132845681",
       "installed": "true",
       "locked": "false",
       "installDate": "1279381080000",
       "removalDate": [],
       "temporary": "false",
       "nbBikes": "17",
       "nbEmptyDocks": "4",
       "nbDocks": "21"
    },
    {
       "id": "191",
       "name": "Hyde Park Corner, Hyde Park",
       "terminalName": "001075",
       "lat": "-7.50311799",
       "long": "109.153520935",
       "installed": "true",
       "locked": "false",
       "installDate": "1279383120000",
       "removalDate": [],
       "temporary": "false",
       "nbBikes": "15",
       "nbEmptyDocks": "15",
       "nbDocks": "36"
    },
    {
       "id": "192",
       "name": "Wardour Street, Soho",
       "terminalName": "001163",
       "lat": "-7.51251523",
       "long": "109.133201961",
       "installed": "true",
       "locked": "false",
       "installDate": "1279383300000",
       "removalDate": [],
       "temporary": "false",
       "nbBikes": "15",
       "nbEmptyDocks": "1",
       "nbDocks": "16"
    },
    {
       "id": "193",
       "name": "Bankside Mix, Bankside",
       "terminalName": "000963",
       "lat": "-7.50581776",
       "long": "109.100186337",
       "installed": "true",
       "locked": "false",
       "installDate": "1279392479356",
       "removalDate": [],
       "temporary": "false",
       "nbBikes": "37",
       "nbEmptyDocks": "22",
       "nbDocks": "60"
    },
    {
       "id": "194",
       "name": "Hop Exchange, The Borough",
       "terminalName": "000960",
       "lat": "-7.50462759",
       "long": "109.091773776",
       "installed": "true",
       "locked": "false",
       "installDate": "1279392479395",
       "removalDate": [],
       "temporary": "false",
       "nbBikes": "29",
       "nbEmptyDocks": "27",
       "nbDocks": "56"
    },
    {
       "id": "195",
       "name": "Milroy Walk, South Bank",
       "terminalName": "000959",
       "lat": "-7.50724437",
       "long": "109.106237501",
       "installed": "true",
       "locked": "false",
       "installDate": "1279392479432",
       "removalDate": [],
       "temporary": "false",
       "nbBikes": "25",
       "nbEmptyDocks": "5",
       "nbDocks": "30"
    },
    {
       "id": "196",
       "name": "Union Street, The Borough",
       "terminalName": "000961",
       "lat": "-7.50368837",
       "long": "109.098497684",
       "installed": "true",
       "locked": "false",
       "installDate": "1279392479471",
       "removalDate": [],
       "temporary": "false",
       "nbBikes": "15",
       "nbEmptyDocks": "2",
       "nbDocks": "17"
    },
    {
       "id": "197",
       "name": "Stamford Street, South Bank",
       "terminalName": "000962",
       "lat": "-7.50556905",
       "long": "109.111606696",
       "installed": "true",
       "locked": "false",
       "installDate": "1279392479520",
       "removalDate": [],
       "temporary": "false",
       "nbBikes": "19",
       "nbEmptyDocks": "8",
       "nbDocks": "27"
    },
    {
       "id": "199",
       "name": "Great Tower Street, Monument",
       "terminalName": "001080",
       "lat": "-7.51048489",
       "long": "109.082989638",
       "installed": "true",
       "locked": "false",
       "installDate": "1279441800000",
       "removalDate": [],
       "temporary": "false",
       "nbBikes": "13",
       "nbEmptyDocks": "9",
       "nbDocks": "24"
    },
    {
       "id": "200",
       "name": "LMU Commercial Road, Whitechapel",
       "terminalName": "001105",
       "lat": "-7.51492456",
       "long": "109.066078037",
       "installed": "true",
       "locked": "false",
       "installDate": "1279441920000",
       "removalDate": [],
       "temporary": "false",
       "nbBikes": "13",
       "nbEmptyDocks": "1",
       "nbDocks": "14"
    },
    {
       "id": "201",
       "name": "Dorset Square, Marylebone",
       "terminalName": "001162",
       "lat": "-7.5225965",
       "long": "109.161113413",
       "installed": "true",
       "locked": "false",
       "installDate": "1279444080000",
       "removalDate": [],
       "temporary": "false",
       "nbBikes": "7",
       "nbEmptyDocks": "8",
       "nbDocks": "16"
    },
    {
       "id": "202",
       "name": "Leman Street, Aldgate",
       "terminalName": "001102",
       "lat": "-7.51236389",
       "long": "109.06954201",
       "installed": "true",
       "locked": "false",
       "installDate": "1279444320000",
       "removalDate": [],
       "temporary": "false",
       "nbBikes": "4",
       "nbEmptyDocks": "32",
       "nbDocks": "37"
    },
    {
       "id": "203",
       "name": "West Smithfield Rotunda, Farringdon",
       "terminalName": "001040",
       "lat": "-7.51821864",
       "long": "109.100791005",
       "installed": "true",
       "locked": "false",
       "installDate": "1279445580000",
       "removalDate": [],
       "temporary": "false",
       "nbBikes": "12",
       "nbEmptyDocks": "1",
       "nbDocks": "15"
    },
    {
       "id": "204",
       "name": "Margery Street, Clerkenwell",
       "terminalName": "003468",
       "lat": "-7.52659961",
       "long": "109.112432615",
       "installed": "true",
       "locked": "false",
       "installDate": "1279466640000",
       "removalDate": [],
       "temporary": "false",
       "nbBikes": "13",
       "nbEmptyDocks": "5",
       "nbDocks": "19"
    },
    {
       "id": "206",
       "name": "New Road 1 , Whitechapel",
       "terminalName": "001171",
       "lat": "-7.518154",
       "long": "109.062697",
       "installed": "true",
       "locked": "false",
       "installDate": "1279471380000",
       "removalDate": [],
       "temporary": "false",
       "nbBikes": "20",
       "nbEmptyDocks": "15",
       "nbDocks": "36"
    },
    {
       "id": "207",
       "name": "Grosvenor Crescent, Belgravia",
       "terminalName": "001169",
       "lat": "-7.50135267",
       "long": "109.153194766",
       "installed": "true",
       "locked": "false",
       "installDate": "1279558140000",
       "removalDate": [],
       "temporary": "false",
       "nbBikes": "18",
       "nbEmptyDocks": "0",
       "nbDocks": "18"
    },
    {
       "id": "208",
       "name": "Mallory Street, Marylebone",
       "terminalName": "001175",
       "lat": "-7.52505151",
       "long": "109.166304359",
       "installed": "true",
       "locked": "false",
       "installDate": "1279472580000",
       "removalDate": [],
       "temporary": "false",
       "nbBikes": "6",
       "nbEmptyDocks": "14",
       "nbDocks": "20"
    },
    {
       "id": "209",
       "name": "Denyer Street, Knightsbridge",
       "terminalName": "003454",
       "lat": "-7.49358391",
       "long": "109.165101392",
       "installed": "true",
       "locked": "false",
       "installDate": "1279529160000",
       "removalDate": [],
       "temporary": "false",
       "nbBikes": "11",
       "nbEmptyDocks": "19",
       "nbDocks": "30"
    },
    {
       "id": "210",
       "name": "Hinde Street, Marylebone",
       "terminalName": "003476",
       "lat": "-7.51681444",
       "long": "109.151926305",
       "installed": "true",
       "locked": "false",
       "installDate": "1279535160000",
       "removalDate": [],
       "temporary": "false",
       "nbBikes": "11",
       "nbEmptyDocks": "9",
       "nbDocks": "21"
    },
    {
       "id": "211",
       "name": "Cadogan Place, Knightsbridge",
       "terminalName": "003469",
       "lat": "-7.49464523",
       "long": "109.158105512",
       "installed": "true",
       "locked": "false",
       "installDate": "1279535820000",
       "removalDate": [],
       "temporary": "false",
       "nbBikes": "8",
       "nbEmptyDocks": "26",
       "nbDocks": "34"
    },
    {
       "id": "212",
       "name": "Campden Hill Road, Notting Hill",
       "terminalName": "003487",
       "lat": "-7.50658458",
       "long": "109.199004026",
       "installed": "true",
       "locked": "false",
       "installDate": "1279536840000",
       "removalDate": [],
       "temporary": "false",
       "nbBikes": "12",
       "nbEmptyDocks": "5",
       "nbDocks": "17"
    },
    {
       "id": "213",
       "name": "Wellington Arch, Hyde Park",
       "terminalName": "001109",
       "lat": "-7.50274025",
       "long": "109.149569201",
       "installed": "true",
       "locked": "false",
       "installDate": "1279537020000",
       "removalDate": [],
       "temporary": "false",
       "nbBikes": "29",
       "nbEmptyDocks": "5",
       "nbDocks": "36"
    },
    {
       "id": "214",
       "name": "Endsleigh Gardens, Euston",
       "terminalName": "001079",
       "lat": "-7.52683806",
       "long": "109.130504336",
       "installed": "true",
       "locked": "false",
       "installDate": "1279537200000",
       "removalDate": [],
       "temporary": "false",
       "nbBikes": "16",
       "nbEmptyDocks": "16",
       "nbDocks": "32"
    },
    {
       "id": "215",
       "name": "Moorfields, Moorgate",
       "terminalName": "001092",
       "lat": "-7.51906932",
       "long": "109.088285377",
       "installed": "true",
       "locked": "false",
       "installDate": "1279537380000",
       "removalDate": [],
       "temporary": "false",
       "nbBikes": "2",
       "nbEmptyDocks": "50",
       "nbDocks": "54"
    },
    {
       "id": "216",
       "name": "Old Brompton Road, South Kensington",
       "terminalName": "003479",
       "lat": "-7.49094565",
       "long": "109.181190899",
       "installed": "true",
       "locked": "false",
       "installDate": "1279537920000",
       "removalDate": [],
       "temporary": "false",
       "nbBikes": "22",
       "nbEmptyDocks": "8",
       "nbDocks": "30"
    },
    {
       "id": "217",
       "name": "Wormwood Street, Liverpool Street",
       "terminalName": "002587",
       "lat": "-7.51615461",
       "long": "109.082422399",
       "installed": "true",
       "locked": "false",
       "installDate": "1279538040000",
       "removalDate": [],
       "temporary": "false",
       "nbBikes": "10",
       "nbEmptyDocks": "5",
       "nbDocks": "16"
    },
    {
       "id": "218",
       "name": "St. Luke's Church, Chelsea",
       "terminalName": "003486",
       "lat": "-7.48971651",
       "long": "109.170194408",
       "installed": "true",
       "locked": "false",
       "installDate": "1279543740000",
       "removalDate": [],
       "temporary": "false",
       "nbBikes": "18",
       "nbEmptyDocks": "2",
       "nbDocks": "20"
    },
    {
       "id": "219",
       "name": "Bramham Gardens, Earl's Court",
       "terminalName": "001183",
       "lat": "-7.49016361",
       "long": "109.19039362",
       "installed": "true",
       "locked": "false",
       "installDate": "1279545900000",
       "removalDate": [],
       "temporary": "false",
       "nbBikes": "6",
       "nbEmptyDocks": "23",
       "nbDocks": "29"
    },
    {
       "id": "220",
       "name": "Chelsea Green, Chelsea",
       "terminalName": "001179",
       "lat": "-7.49066456",
       "long": "109.166485083",
       "installed": "true",
       "locked": "false",
       "installDate": "1279546320000",
       "removalDate": [],
       "temporary": "false",
       "nbBikes": "23",
       "nbEmptyDocks": "4",
       "nbDocks": "27"
    },
    {
       "id": "221",
       "name": "Horseferry Road, Westminster",
       "terminalName": "001170",
       "lat": "-7.49481649",
       "long": "109.13045856",
       "installed": "true",
       "locked": "false",
       "installDate": "1279552200000",
       "removalDate": [],
       "temporary": "false",
       "nbBikes": "10",
       "nbEmptyDocks": "4",
       "nbDocks": "16"
    },
    {
       "id": "222",
       "name": "Knightsbridge, Hyde Park",
       "terminalName": "001101",
       "lat": "-7.50275704",
       "long": "109.155349725",
       "installed": "true",
       "locked": "false",
       "installDate": "1279614120000",
       "removalDate": [],
       "temporary": "false",
       "nbBikes": "37",
       "nbEmptyDocks": "5",
       "nbDocks": "43"
    },
    {
       "id": "223",
       "name": "Rodney Road , Walworth",
       "terminalName": "003481",
       "lat": "-7.49148474",
       "long": "109.090220911",
       "installed": "true",
       "locked": "false",
       "installDate": "1279614420000",
       "removalDate": [],
       "temporary": "false",
       "nbBikes": "8",
       "nbEmptyDocks": "16",
       "nbDocks": "24"
    },
    {
       "id": "224",
       "name": "Queensway, Kensington Gardens",
       "terminalName": "001150",
       "lat": "-7.51031",
       "long": "109.18740235",
       "installed": "true",
       "locked": "false",
       "installDate": "1279615020000",
       "removalDate": [],
       "temporary": "false",
       "nbBikes": "9",
       "nbEmptyDocks": "7",
       "nbDocks": "17"
    },
    {
       "id": "225",
       "name": "Notting Hill Gate Station, Notting Hill",
       "terminalName": "001182",
       "lat": "-7.50935342",
       "long": "109.196422",
       "installed": "true",
       "locked": "false",
       "installDate": "1279616280000",
       "removalDate": [],
       "temporary": "false",
       "nbBikes": "30",
       "nbEmptyDocks": "0",
       "nbDocks": "30"
    },
    {
       "id": "226",
       "name": "Charles II Street, West End",
       "terminalName": "003488",
       "lat": "-7.50844614",
       "long": "109.131961389",
       "installed": "true",
       "locked": "false",
       "installDate": "1279616520000",
       "removalDate": [],
       "temporary": "false",
       "nbBikes": "16",
       "nbEmptyDocks": "8",
       "nbDocks": "24"
    },
    {
       "id": "227",
       "name": "Great Percy Street, Clerkenwell",
       "terminalName": "003470",
       "lat": "-7.52891573",
       "long": "109.115480888",
       "installed": "true",
       "locked": "false",
       "installDate": "1279616700000",
       "removalDate": [],
       "temporary": "false",
       "nbBikes": "19",
       "nbEmptyDocks": "3",
       "nbDocks": "23"
    },
    {
       "id": "228",
       "name": "St. James's Square, St. James's",
       "terminalName": "001067",
       "lat": "-7.50742485",
       "long": "109.134621209",
       "installed": "true",
       "locked": "false",
       "installDate": "1279616880000",
       "removalDate": [],
       "temporary": "false",
       "nbBikes": "21",
       "nbEmptyDocks": "19",
       "nbDocks": "40"
    },
    {
       "id": "229",
       "name": "Whitehall Place, Strand",
       "terminalName": "001151",
       "lat": "-7.50654321",
       "long": "109.123179697",
       "installed": "true",
       "locked": "false",
       "installDate": "1279617780000",
       "removalDate": [],
       "temporary": "false",
       "nbBikes": "12",
       "nbEmptyDocks": "11",
       "nbDocks": "24"
    },
    {
       "id": "230",
       "name": "Poured Lines, Bankside",
       "terminalName": "001144",
       "lat": "-7.50669284",
       "long": "109.103137426",
       "installed": "true",
       "locked": "false",
       "installDate": "1279618020000",
       "removalDate": [],
       "temporary": "false",
       "nbBikes": "8",
       "nbEmptyDocks": "23",
       "nbDocks": "31"
    },
    {
       "id": "231",
       "name": "Queen's Gate (Central), South Kensington",
       "terminalName": "001089",
       "lat": "-7.49396755",
       "long": "109.17873226",
       "installed": "true",
       "locked": "false",
       "installDate": "1279622820000",
       "removalDate": [],
       "temporary": "false",
       "nbBikes": "25",
       "nbEmptyDocks": "6",
       "nbDocks": "31"
    },
    {
       "id": "232",
       "name": "Carey Street, Holborn",
       "terminalName": "001139",
       "lat": "-7.51501025",
       "long": "109.112753217",
       "installed": "true",
       "locked": "false",
       "installDate": "1279623240000",
       "removalDate": [],
       "temporary": "false",
       "nbBikes": "8",
       "nbEmptyDocks": "8",
       "nbDocks": "16"
    },
    {
       "id": "233",
       "name": "Pall Mall East, West End",
       "terminalName": "001153",
       "lat": "-7.50777049",
       "long": "109.130699733",
       "installed": "true",
       "locked": "false",
       "installDate": "1279624260000",
       "removalDate": [],
       "temporary": "false",
       "nbBikes": "11",
       "nbEmptyDocks": "11",
       "nbDocks": "22"
    },
    {
       "id": "234",
       "name": "Liverpool Road (N1 Centre), Angel",
       "terminalName": "001081",
       "lat": "-7.53450449",
       "long": "109.106992706",
       "installed": "true",
       "locked": "false",
       "installDate": "1279624680000",
       "removalDate": [],
       "temporary": "false",
       "nbBikes": "21",
       "nbEmptyDocks": "3",
       "nbDocks": "24"
    },
    {
       "id": "235",
       "name": "Kennington Road , Vauxhall",
       "terminalName": "001154",
       "lat": "-7.49571828",
       "long": "109.110889274",
       "installed": "true",
       "locked": "false",
       "installDate": "1279625640000",
       "removalDate": [],
       "temporary": "false",
       "nbBikes": "27",
       "nbEmptyDocks": "8",
       "nbDocks": "36"
    },
    {
       "id": "236",
       "name": "Fashion Street, Whitechapel",
       "terminalName": "003483",
       "lat": "-7.51838043",
       "long": "109.073438925",
       "installed": "true",
       "locked": "false",
       "installDate": "1279625940000",
       "removalDate": [],
       "temporary": "false",
       "nbBikes": "9",
       "nbEmptyDocks": "20",
       "nbDocks": "30"
    },
    {
       "id": "237",
       "name": "Dock Street, Wapping",
       "terminalName": "003467",
       "lat": "-7.5097860151",
       "long": "109.0681619805156",
       "installed": "true",
       "locked": "false",
       "installDate": "1279799040000",
       "removalDate": [],
       "temporary": "false",
       "nbBikes": "28",
       "nbEmptyDocks": "2",
       "nbDocks": "30"
    },
    {
       "id": "238",
       "name": "Frampton Street, Paddington",
       "terminalName": "001099",
       "lat": "-7.5233534",
       "long": "109.175116099",
       "installed": "true",
       "locked": "false",
       "installDate": "1279627920000",
       "removalDate": [],
       "temporary": "false",
       "nbBikes": "16",
       "nbEmptyDocks": "16",
       "nbDocks": "32"
    },
    {
       "id": "239",
       "name": "Warren Street Station, Euston",
       "terminalName": "001090",
       "lat": "-7.52443845",
       "long": "109.138019439",
       "installed": "true",
       "locked": "false",
       "installDate": "1279628160000",
       "removalDate": [],
       "temporary": "false",
       "nbBikes": "15",
       "nbEmptyDocks": "11",
       "nbDocks": "26"
    },
    {
       "id": "242",
       "name": "Beaumont Street, Marylebone",
       "terminalName": "003482",
       "lat": "-7.52200801",
       "long": "109.151359288",
       "installed": "true",
       "locked": "false",
       "installDate": "1279628640000",
       "removalDate": [],
       "temporary": "false",
       "nbBikes": "13",
       "nbEmptyDocks": "10",
       "nbDocks": "23"
    },
    {
       "id": "243",
       "name": "Gloucester Street, Pimlico",
       "terminalName": "001103",
       "lat": "-7.49096258",
       "long": "109.139625122",
       "installed": "true",
       "locked": "false",
       "installDate": "1279628940000",
       "removalDate": [],
       "temporary": "false",
       "nbBikes": "14",
       "nbEmptyDocks": "10",
       "nbDocks": "25"
    },
    {
       "id": "244",
       "name": "Earnshaw Street , Covent Garden",
       "terminalName": "001145",
       "lat": "-7.51611887",
       "long": "109.128585022",
       "installed": "true",
       "locked": "false",
       "installDate": "1279629240000",
       "removalDate": [],
       "temporary": "false",
       "nbBikes": "10",
       "nbEmptyDocks": "8",
       "nbDocks": "18"
    },
    {
       "id": "245",
       "name": "Grosvenor Road, Pimlico",
       "terminalName": "001140",
       "lat": "-7.4853572",
       "long": "109.142207481",
       "installed": "true",
       "locked": "false",
       "installDate": "1279629660000",
       "removalDate": [],
       "temporary": "false",
       "nbBikes": "14",
       "nbEmptyDocks": "15",
       "nbDocks": "29"
    },
    {
       "id": "246",
       "name": "Berry Street, Clerkenwell",
       "terminalName": "001159",
       "lat": "-7.52285301",
       "long": "109.099994052",
       "installed": "true",
       "locked": "false",
       "installDate": "1279639740000",
       "removalDate": [],
       "temporary": "false",
       "nbBikes": "17",
       "nbEmptyDocks": "24",
       "nbDocks": "41"
    },
    {
       "id": "247",
       "name": "St. John's Wood Church, The Regent's Park",
       "terminalName": "001091",
       "lat": "-7.530529",
       "long": "109.167515",
       "installed": "true",
       "locked": "false",
       "installDate": "1279639920000",
       "removalDate": [],
       "temporary": "false",
       "nbBikes": "30",
       "nbEmptyDocks": "19",
       "nbDocks": "50"
    },
    {
       "id": "248",
       "name": "Triangle Car Park, Hyde Park",
       "terminalName": "001088",
       "lat": "-7.50645179",
       "long": "109.170279555",
       "installed": "true",
       "locked": "false",
       "installDate": "1279640160000",
       "removalDate": [],
       "temporary": "false",
       "nbBikes": "16",
       "nbEmptyDocks": "9",
       "nbDocks": "27"
    },
    {
       "id": "249",
       "name": "Harper Road, The Borough",
       "terminalName": "001137",
       "lat": "-7.49859784",
       "long": "109.096191134",
       "installed": "true",
       "locked": "false",
       "installDate": "1279640400000",
       "removalDate": [],
       "temporary": "false",
       "nbBikes": "12",
       "nbEmptyDocks": "29",
       "nbDocks": "42"
    },
    {
       "id": "250",
       "name": "Royal Avenue 1, Chelsea",
       "terminalName": "003440",
       "lat": "-7.489932",
       "long": "109.162727",
       "installed": "true",
       "locked": "false",
       "installDate": "1279641000000",
       "removalDate": [],
       "temporary": "false",
       "nbBikes": "5",
       "nbEmptyDocks": "5",
       "nbDocks": "10"
    },
    {
       "id": "251",
       "name": "Brushfield Street, Liverpool Street",
       "terminalName": "001161",
       "lat": "-7.518908",
       "long": "109.079249",
       "installed": "true",
       "locked": "false",
       "installDate": "1279700160000",
       "removalDate": [],
       "temporary": "false",
       "nbBikes": "27",
       "nbEmptyDocks": "4",
       "nbDocks": "34"
    },
    {
       "id": "252",
       "name": "Jubilee Gardens, South Bank",
       "terminalName": "001111",
       "lat": "-7.5046364",
       "long": "109.116542278",
       "installed": "true",
       "locked": "false",
       "installDate": "1279700640000",
       "removalDate": [],
       "temporary": "false",
       "nbBikes": "18",
       "nbEmptyDocks": "8",
       "nbDocks": "26"
    },
    {
       "id": "253",
       "name": "Shoreditch Park, Hoxton",
       "terminalName": "001051",
       "lat": "-7.53404294",
       "long": "109.086379717",
       "installed": "true",
       "locked": "false",
       "installDate": "1279700820000",
       "removalDate": [],
       "temporary": "false",
       "nbBikes": "15",
       "nbEmptyDocks": "14",
       "nbDocks": "30"
    },
    {
       "id": "254",
       "name": "Chadwell Street, Angel",
       "terminalName": "003471",
       "lat": "-7.53051587",
       "long": "109.106408455",
       "installed": "true",
       "locked": "false",
       "installDate": "1279700940000",
       "removalDate": [],
       "temporary": "false",
       "nbBikes": "9",
       "nbEmptyDocks": "9",
       "nbDocks": "18"
    },
    {
       "id": "255",
       "name": "Clifton Road, Maida Vale",
       "terminalName": "001147",
       "lat": "-7.52557531",
       "long": "109.179592915",
       "installed": "true",
       "locked": "false",
       "installDate": "1279702560000",
       "removalDate": [],
       "temporary": "false",
       "nbBikes": "3",
       "nbEmptyDocks": "19",
       "nbDocks": "22"
    },
    {
       "id": "256",
       "name": "Houghton Street, Strand",
       "terminalName": "003484",
       "lat": "-7.51362054",
       "long": "109.116764211",
       "installed": "true",
       "locked": "false",
       "installDate": "1279708020000",
       "removalDate": [],
       "temporary": "false",
       "nbBikes": "4",
       "nbEmptyDocks": "11",
       "nbDocks": "15"
    },
    {
       "id": "257",
       "name": "Westminster University, Marylebone",
       "terminalName": "001194",
       "lat": "-7.52248185",
       "long": "109.154907218",
       "installed": "true",
       "locked": "false",
       "installDate": "1279708140000",
       "removalDate": [],
       "temporary": "false",
       "nbBikes": "16",
       "nbEmptyDocks": "0",
       "nbDocks": "16"
    },
    {
       "id": "258",
       "name": "Kensington Gore, Knightsbridge",
       "terminalName": "001193",
       "lat": "-7.50143293",
       "long": "109.178656971",
       "installed": "true",
       "locked": "false",
       "installDate": "1279708380000",
       "removalDate": [],
       "temporary": "false",
       "nbBikes": "22",
       "nbEmptyDocks": "1",
       "nbDocks": "23"
    },
    {
       "id": "259",
       "name": "Bourne Street, Belgravia",
       "terminalName": "001180",
       "lat": "-7.490959",
       "long": "109.1532331",
       "installed": "true",
       "locked": "false",
       "installDate": "1279709100000",
       "removalDate": [],
       "temporary": "false",
       "nbBikes": "6",
       "nbEmptyDocks": "10",
       "nbDocks": "16"
    },
    {
       "id": "260",
       "name": "Broadwick Street, Soho",
       "terminalName": "003489",
       "lat": "-7.5136846",
       "long": "109.135580879",
       "installed": "true",
       "locked": "false",
       "installDate": "1279711020000",
       "removalDate": [],
       "temporary": "false",
       "nbBikes": "7",
       "nbEmptyDocks": "11",
       "nbDocks": "18"
    },
    {
       "id": "261",
       "name": "Princes Square, Bayswater",
       "terminalName": "003491",
       "lat": "-7.5134891",
       "long": "109.191351186",
       "installed": "true",
       "locked": "false",
       "installDate": "1279711200000",
       "removalDate": [],
       "temporary": "false",
       "nbBikes": "8",
       "nbEmptyDocks": "6",
       "nbDocks": "15"
    },
    {
       "id": "262",
       "name": "LSBU (Borough Road), Elephant  Castle",
       "terminalName": "001095",
       "lat": "-7.49874469",
       "long": "109.103132904",
       "installed": "true",
       "locked": "false",
       "installDate": "1279711620000",
       "removalDate": [],
       "temporary": "false",
       "nbBikes": "35",
       "nbEmptyDocks": "0",
       "nbDocks": "35"
    },
    {
       "id": "263",
       "name": "St. Mary Axe, Aldgate",
       "terminalName": "001184",
       "lat": "-7.51422502",
       "long": "109.080660083",
       "installed": "true",
       "locked": "false",
       "installDate": "1279712160000",
       "removalDate": [],
       "temporary": "false",
       "nbBikes": "11",
       "nbEmptyDocks": "10",
       "nbDocks": "21"
    },
    {
       "id": "264",
       "name": "Tysoe Street, Clerkenwell",
       "terminalName": "001146",
       "lat": "-7.52644342",
       "long": "109.109256828",
       "installed": "true",
       "locked": "false",
       "installDate": "1279712520000",
       "removalDate": [],
       "temporary": "false",
       "nbBikes": "9",
       "nbEmptyDocks": "11",
       "nbDocks": "20"
    },